dbn,school_name,num_of_sat_test_takers,critical_reading_mean,math_mean,writing_mean,building_code,location_name,location_code,address,geographical_district_code,postcode,latitude,longitude,geo_cat_code
01M292,HENRY STREET SCHOOL FOR INTERNATIONAL STUDIES,29,355,404,363,M056,Henry Street School for International Studies,M292,220 HENRY STREET,1,10002,40.713684,-73.986336,1-4
01M448,UNIVERSITY NEIGHBORHOOD HIGH SCHOOL,91,383,423,366,M446,University Neighborhood High School,M448,200 MONROE STREET,1,10002,40.712399,-73.984497,1-4
01M450,EAST SIDE COMMUNITY SCHOOL,70,377,402,370,M060,East Side Community School,M450,420 EAST 12 STREET,1,10009,40.729589,-73.982555,1-4
01M458,FORSYTH SATELLITE ACADEMY,7,414,401,359,M510,Forsyth Satellite Academy,M458,198 FORSYTH STREET,1,10002,40.72252,-73.990728,1-4
01M509,MARTA VALLE HIGH SCHOOL,44,390,433,384,M025,Marta Valle High School,M509,145 STANTON STREET,1,10002,40.720581,-73.985645,1-4
01M515,LOWER EAST SIDE PREPARATORY HIGH SCHOOL,112,332,557,316,M025,Lower East Side Preparatory High School,M515,145 STANTON STREET,1,10002,40.720581,-73.985645,1-4
01M539,"NEW EXPLORATIONS INTO SCIENCE, TECHNOLOGY AND MATH HIGH SCHOOL",159,522,574,525,M022,"New Explorations into Science, Technology and Math",M539,111 COLUMBIA STREET,1,10002,40.718895,-73.979308,1-4
01M650,CASCADES HIGH SCHOOL,18,417,418,411,M510,Cascades High School,M650,198 FORSYTH STREET,1,10002,40.72252,-73.990728,1-4
01M696,BARD HIGH SCHOOL EARLY COLLEGE,130,624,604,628,M097,Bard High School Early College,M696,525 EAST HOUSTON STREET,1,10002,40.719029,-73.975891,1-4
02M047,47 THE AMERICAN SIGN LANGUAGE AND ENGLISH SECONDARY SCHOOL,16,395,400,387,M047,47 The American Sign Language and English Secondar,M047,223 EAST 23 STREET,2,10010,40.738548,-73.982455,1-4
02M288,FOOD AND FINANCE HIGH SCHOOL,62,409,393,392,M535,Food and Finance High School,M288,525 WEST  50TH STREET,2,10019,40.765184,-73.992953,1-4
02M294,ESSEX STREET ACADEMY,53,394,384,378,M445,Essex Street Academy,M294,350 GRAND STREET,2,10002,40.716778,-73.989337,1-4
02M296,HIGH SCHOOL OF HOSPITALITY MANAGEMENT,58,374,375,362,M535,High School of Hospitality Management,M296,525 WEST  50TH STREET,2,10019,40.765184,-73.992953,1-4
02M298,PACE HIGH SCHOOL,85,423,438,432,M131,Pace High School,M298,100 HESTER STREET,2,10002,40.716553,-73.993092,1-4
02M300,"URBAN ASSEMBLY SCHOOL OF DESIGN AND CONSTRUCTION, THE",48,404,449,416,M535,"Urban Assembly School of Design and Construction,",M300,525 WEST  50TH STREET,2,10019,40.765184,-73.992953,1-4
02M303,"FACING HISTORY SCHOOL, THE",76,353,358,340,M535,"Facing History School, The",M303,525 WEST  50TH STREET,2,10019,40.765184,-73.992953,1-4
02M305,"URBAN ASSEMBLY ACADEMY OF GOVERNMENT AND LAW, THE",50,375,388,385,M445,"Urban Assembly Academy of Government and Law, The",M305,350 GRAND STREET,2,10002,40.716778,-73.989337,1-4
02M308,LOWER MANHATTAN ARTS ACADEMY,40,403,392,405,M445,Lower Manhattan Arts Academy,M308,350 GRAND STREET,2,10002,40.716778,-73.989337,1-4
02M313,"JAMES BALDWIN SCHOOL, THE: A SCHOOL FOR EXPEDITIONARY LEARNING",69,408,390,390,M440,"James Baldwin School, The: A School for Expedition",M313,351 WEST  18 STREET,2,10011,40.742867,-74.002136,1-4
02M316,"URBAN ASSEMBLY SCHOOL OF BUSINESS FOR YOUNG WOMEN, THE",42,373,370,384,M282,"Urban Assembly School of Business for Young Women,",M316,26 BROADWAY,2,10004,40.70568,-74.013302,1-4
02M374,GRAMERCY ARTS HIGH SCHOOL,60,391,391,394,M460,Gramercy Arts High School,M374,40 IRVING PLACE,2,10003,40.735494,-73.987659,1-4
02M376,NYC ISCHOOL,92,473,483,479,M615,NYC iSchool,M376,131 AVENUE OF THE AMERICAS,2,10013,40.7244,-74.004625,1-4
02M394,EMMA LAZARUS HIGH SCHOOL,79,319,512,357,M131,EMMA LAZARUS HIGH SCHOOL,M394,100 HESTER STREET,2,10002,40.716553,-73.993092,1-4
02M400,HIGH SCHOOL FOR ENVIRONMENTAL STUDIES,263,465,493,461,M834,High School for Environmental Studies,M400,444 WEST 56 STREET,2,10019,40.767791,-73.987531,1-4
02M407,INSTITUTE FOR COLLABORATIVE EDUCATION,54,492,465,467,M475,Institute for Collaborative Education,M407,345 EAST  15TH STREET,2,10003,40.732447,-73.983031,1-4
02M408,PROFESSIONAL PERFORMING ARTS HIGH SCHOOL,94,509,490,523,M017,Professional Performing Arts High School,M408,328 WEST  48 STREET,2,10036,40.761448,-73.988019,1-4
02M411,BARUCH COLLEGE CAMPUS HIGH SCHOOL,104,496,563,518,M874,Baruch College Campus High School,M411,55 EAST  25 STREET,2,10010,40.74193,-73.986521,1-4
02M412,N.Y.C. LAB SCHOOL FOR COLLABORATIVE STUDIES,114,537,590,550,M070,N.Y.C. Lab School for Collaborative Studies,M412,333 WEST  17 STREET,2,10011,40.742129,-74.002198,1-4
02M413,SCHOOL OF THE FUTURE HIGH SCHOOL,66,517,533,515,M660,School of the Future High School,M413,127 EAST  22 STREET,2,10010,40.738952,-73.985479,1-4
02M414,N.Y.C. MUSEUM SCHOOL,103,468,492,459,M070,N.Y.C. Museum School,M414,333 WEST  17 STREET,2,10011,40.742129,-74.002198,1-4
02M416,ELEANOR ROOSEVELT HIGH SCHOOL,127,572,594,592,M855,Eleanor Roosevelt High School,M416,411 EAST 76 STREET,2,10021,40.770187,-73.953608,1-4
02M418,MILLENNIUM HIGH SCHOOL,144,528,553,533,M824,Millennium High School,M418,75 BROAD STREET,2,10004,40.704487,-74.011556,1-4
02M419,LANDMARK HIGH SCHOOL,62,390,399,381,M440,Landmark High School,M419,351 WEST  18 STREET,2,10011,40.742867,-74.002136,1-4
02M420,HIGH SCHOOL FOR HEALTH PROFESSIONS AND HUMAN SERVICES,336,429,449,428,M475,High School for Health Professions and Human Servi,M420,345 EAST  15TH STREET,2,10003,40.732447,-73.983031,1-4
02M425,LEADERSHIP AND PUBLIC SERVICE HIGH SCHOOL,84,416,426,391,M894,Leadership and Public Service High School,M425,90 TRINITY PLACE,2,10006,40.70873,-74.012332,1-4
02M429,LEGACY SCHOOL FOR INTEGRATED STUDIES,29,356,357,349,M883,Legacy School for Integrated Studies,M429,34 WEST  14 STREET,2,10011,40.736518,-73.994858,1-4
02M439,MANHATTAN VILLAGE ACADEMY,95,441,473,458,M873,Manhattan Village Academy,M439,43 WEST  22 STREET,2,10010,40.741497,-73.991512,1-4
02M449,VANGUARD HIGH SCHOOL,72,395,416,388,M480,Vanguard High School,M449,317 EAST  67 STREET,2,10065,40.765359,-73.960059,1-4
02M459,MANHATTAN INTERNATIONAL HIGH SCHOOL,49,376,460,391,M480,Manhattan International High School,M459,317 EAST  67 STREET,2,10065,40.765359,-73.960059,1-4
02M460,WASHINGTON IRVING HIGH SCHOOL,151,373,387,360,M460,Washington Irving High School,M460,40 IRVING PLACE,2,10003,40.735494,-73.987659,1-4
02M475,STUYVESANT HIGH SCHOOL,832,679,735,682,M477,Stuyvesant High School,M475,345 CHAMBERS STREET,2,10282,40.71759,-74.013748,1-4
02M489,HIGH SCHOOL OF ECONOMICS AND FINANCE,167,443,489,442,M833,High School of Economics and Finance,M489,100 TRINITY PLACE,2,10006,40.709196,-74.012022,1-4
02M500,UNITY CENTER FOR URBAN TECHNOLOGIES,25,370,349,351,M620,Unity Center for Urban Technologies,M500,111 EAST  33RD STREET,2,10016,40.746176,-73.981241,1-4
02M519,TALENT UNLIMITED HIGH SCHOOL,81,469,472,475,M480,Talent Unlimited High School,M519,317 EAST  67 STREET,2,10065,40.765359,-73.960059,1-4
02M520,MURRY BERGTRAUM HIGH SCHOOL FOR BUSINESS CAREERS,264,407,440,393,M520,Murry Bergtraum High School for Business Careers,M520,411 PEARL STREET,2,10038,40.711442,-74.000851,1-4
02M529,JACQUELINE KENNEDY ONASSIS HIGH SCHOOL,131,414,425,400,M486,Jacqueline Kennedy Onassis High School,M529,120 WEST  46 STREET,2,10036,40.757729,-73.983078,1-4
02M531,REPERTORY COMPANY HIGH SCHOOL FOR THEATRE ARTS,42,429,404,420,M896,Repertory Company High School for Theatre Arts,M531,123 WEST  43 STREET,2,10036,40.755843,-73.984382,1-4
02M542,MANHATTAN BRIDGES HIGH SCHOOL,66,336,378,344,M535,Manhattan Bridges High School,M542,525 WEST  50TH STREET,2,10019,40.765184,-73.992953,1-4
02M543,NEW DESIGN HIGH SCHOOL,73,391,395,382,M445,New Design High School,M543,350 GRAND STREET,2,10002,40.716778,-73.989337,1-4
02M544,INDEPENDENCE HIGH SCHOOL,14,389,371,335,M834,Independence High School,M544,850 10TH AVENUE,2,10019,40.768343,-73.989108,1-4
02M545,HIGH SCHOOL FOR DUAL LANGUAGE AND ASIAN STUDIES,78,412,581,431,M445,High School for Dual Language and Asian Studies,M545,350 GRAND STREET,2,10002,40.716778,-73.989337,1-4
02M550,LIBERTY HIGH SCHOOL ACADEMY FOR NEWCOMERS,26,368,436,352,M451,Liberty High School Academy for Newcomers,M550,250 WEST  18 STREET,2,10011,40.741657,-73.999307,1-4
02M551,THE URBAN ASSEMBLY NEW YORK HARBOR SCHOOL,77,405,423,384,M877,Urban Assembly New York Harbor School,M551,"10 SOUTH STREET, SLIP 7",2,10004,40.701695,-74.011631,1-4
02M560,HIGH SCHOOL M560 s CITY AS SCHOOL,56,498,440,477,M641,High School M560 - City As School,M560,16 CLARKSON STREET,2,10014,40.729412,-74.006148,1-4
02M565,URBAN ACADEMY LABORATORY HIGH SCHOOL,30,527,508,512,M480,Urban Academy Laboratory High School,M565,317 EAST  67 STREET,2,10065,40.765359,-73.960059,1-4
02M570,SATELLITE ACADEMY HIGH SCHOOL,33,350,337,345,M920,Satellite Academy High School,M570,120 WEST  30 STREET,2,10001,40.747621,-73.990454,1-4
02M575,MANHATTAN COMPREHENSIVE NIGHT AND DAY HIGH SCHOOL,121,345,517,343,M661,Manhattan Comprehensive Night and Day High School,M575,240 2 AVENUE,2,10003,40.732716,-73.984665,1-4
02M580,RICHARD R. GREEN HIGH SCHOOL OF TEACHING,84,408,384,403,M282,Richard R. Green High School of Teaching,M580,26 BROADWAY,2,10004,40.70568,-74.013302,1-4
02M586,HARVEY MILK HIGH SCHOOL,9,458,416,429,M807,Harvey Milk High School,M586,2-10 ASTOR PLACE,2,10003,40.730038,-73.992632,1-4
02M600,THE HIGH SCHOOL OF FASHION INDUSTRIES,335,423,423,411,M600,The High School of Fashion Industries,M600,225 WEST  24 STREET,2,10011,40.745156,-73.996074,1-4
02M605,HUMANITIES PREPARATORY ACADEMY,36,426,403,426,M440,Humanities Preparatory Academy,M605,351 WEST  18 STREET,2,10011,40.742867,-74.002136,1-4
02M615,CHELSEA CAREER AND TECHNICAL EDUCATION HIGH SCHOOL,83,399,418,390,M615,Chelsea Career and Technical Education High School,M615,131 AVENUE OF THE AMERICAS,2,10013,40.7244,-74.004625,1-4
02M620,NORMAN THOMAS HIGH SCHOOL,154,370,379,359,M620,Norman Thomas High School,M620,111 EAST  33RD STREET,2,10016,40.746176,-73.981241,1-4
02M625,HIGH SCHOOL OF GRAPHIC COMMUNICATION ARTS,191,395,382,376,M625,High School of Graphic Communication Arts,M625,439 WEST 49TH STREET,2,10019,40.76337,-73.990593,1-4
02M630,ART AND DESIGN HIGH SCHOOL,270,444,441,430,M488,Art and Design High School,M630,231-249 EAST 56 STREET,2,10022,40.75924,-73.967203,1-4
02M655,LIFE SCIENCES SECONDARY SCHOOL,61,409,424,403,M645,Life Sciences Secondary School,M655,320 EAST  96 STREET,2,10128,40.783625,-73.945637,1-4
03M283,MANHATTAN THEATRE LAB HIGH SCHOOL,27,406,379,408,M490,Manhattan Theatre Lab High School,M283,122 AMSTERDAM AVENUE,3,10023,40.774351,-73.984753,1-4
03M299,"HIGH SCHOOL FOR ARTS, IMAGINATION AND INQUIRY",49,374,384,374,M490,"High School for Arts, Imagination and Inquiry",M299,122 AMSTERDAM AVENUE,3,10023,40.774351,-73.984753,1-4
03M307,"URBAN ASSEMBLY SCHOOL FOR MEDIA STUDIES, THE",41,384,390,370,M490,"Urban Assembly School for Media Studies, The",M307,122 AMSTERDAM AVENUE,3,10023,40.774351,-73.984753,1-4
03M404,INNOVATION DIPLOMA PLUS,12,416,403,381,M470,Innovation Diploma Plus,M404,145 WEST  84 STREET,3,10024,40.785803,-73.974614,1-4
03M415,WADLEIGH SECONDARY SCHOOL FOR THE PERFORMING & VISUAL ARTS,32,371,368,370,M088,Wadleigh Secondary School for the Performing & Vis,M415,215 WEST 114 STREET,3,10026,40.802207,-73.954142,1-4
03M479,BEACON HIGH SCHOOL,261,577,575,592,M837,Beacon High School,M479,227-243 WEST 61ST STREET,3,10023,40.772007,-73.987479,1-4
03M485,FIORELLO H. LAGUARDIA HIGH SCHOOL OF MUSIC & ART AND PERFORMING ARTS,531,566,564,577,M485,Fiorello H. LaGuardia High School of Music & Art a,M485,100 AMSTERDAM AVENUE,3,10023,40.773629,-73.985273,1-4
03M492,"HIGH SCHOOL FOR LAW, ADVOCACY AND COMMUNITY JUSTICE",66,396,398,402,M490,"High School for Law, Advocacy and Community Justic",M492,122 AMSTERDAM AVENUE,3,10023,40.774351,-73.984753,1-4
03M494,HIGH SCHOOL OF ARTS AND TECHNOLOGY,75,433,433,411,M490,High School of Arts and Technology,M494,122 AMSTERDAM AVENUE,3,10023,40.774351,-73.984753,1-4
03M505,EDWARD A. REYNOLDS WEST SIDE HIGH SCHOOL,35,401,369,351,M506,Edward A. Reynolds West Side High School,M505,140 WEST 102 STREET,3,10025,40.797559,-73.966837,1-4
03M541,MANHATTAN / HUNTER SCIENCE HIGH SCHOOL,111,473,506,467,M490,Manhattan / Hunter Science High School,M541,122 AMSTERDAM AVENUE,3,10023,40.774351,-73.984753,1-4
03M860,FREDERICK DOUGLASS ACADEMY II SECONDARY SCHOOL,43,356,379,361,M088,Frederick Douglass Academy II Secondary School,M860,215 WEST 114 STREET,3,10026,40.802207,-73.954142,1-4
04M409,COALITION SCHOOL FOR SOCIAL CHANGE,48,354,357,373,M045,Coalition School for Social Change,M409,2351 1ST AVENUE,4,10035,40.798884,-73.933319,1-4
04M435,MANHATTAN CENTER FOR SCIENCE AND MATHEMATICS,375,461,514,455,M435,Manhattan Center for Science and Mathematics,M435,260 PLEASANT AVENUE,4,10029,40.793856,-73.934028,1-4
04M495,PARK EAST HIGH SCHOOL,51,373,379,376,M495,Park East High School,M495,230 EAST 105 STREET,4,10029,40.790543,-73.944356,1-4
04M555,CENTRAL PARK EAST HIGH SCHOOL,73,405,421,395,M013,Central Park East High School,M555,1573 MADISON AVENUE,4,10029,40.793763,-73.949381,1-4
04M610,YOUNG WOMEN'S LEADERSHIP SCHOOL,70,432,446,448,M895,Young Women's Leadership School,M610,105 EAST 106 STREET,4,10029,40.792741,-73.947428,1-4
04M635,ACADEMY OF ENVIRONMENTAL SCIENCE SECONDARY HIGH SCHOOL,48,369,369,357,M099,Academy of Environmental Science Secondary High Sc,M635,410 EAST 100 STREET,4,10029,40.785671,-73.942548,1-4
04M680,"HERITAGE SCHOOL, THE",31,358,351,345,M107,"Heritage School, The",M680,1680 LEXINGTON AVENUE,4,10029,40.791881,-73.946558,1-4
05M285,HARLEM RENAISSANCE HIGH SCHOOL,29,357,318,333,M911,Harlem Renaissance High School,M285,22 EAST 128 STREET,5,10035,40.807987,-73.940061,5-8
05M304,MOTT HALL HIGH SCHOOL,54,413,399,398,M136,Mott Hall High School,M304,6 EDGECOMBE AVENUE,5,10030,40.817372,-73.947712,5-8
05M367,ACADEMY FOR SOCIAL ACTION: A COLLEGE BOARD SCHOOL,33,354,366,342,M043,Academy for Social Action: A College Board School,M367,509 WEST 129 STREET,5,10027,40.815256,-73.955325,5-8
05M369,URBAN ASSEMBLY SCHOOL FOR THE PERFORMING ARTS,56,360,353,364,M043,Urban Assembly School for the Performing Arts,M369,509 WEST 129 STREET,5,10027,40.815256,-73.955325,5-8
05M469,CHOIR ACADEMY OF HARLEM,20,354,360,385,M501,Choir Academy of Harlem,M469,2005 MADISON AVENUE,5,10035,40.807383,-73.939433,5-8
05M499,FREDERICK DOUGLASS ACADEMY,214,458,474,442,M010,Frederick Douglass Academy,M499,2581 7TH AVENUE,5,10039,40.824319,-73.93712,5-8
05M670,THURGOOD MARSHALL ACADEMY FOR LEARNING AND SOCIAL CHANGE,66,396,402,404,M970,Thurgood Marshall Academy for Learning and Social,M670,200-214 WEST 135TH STREET,5,10030,40.815509,-73.944202,5-8
05M685,BREAD & ROSES INTEGRATED ARTS HIGH SCHOOL,61,369,361,355,M136,Bread & Roses Integrated Arts High School,M685,6 EDGECOMBE AVENUE,5,10030,40.817372,-73.947712,5-8
05M692,"HIGH SCHOOL FOR MATHEMATICS, SCIENCE AND ENGINEERING AT CITY COLLEGE",101,605,654,588,M812,"High School for Mathematics, Science and Engineeri",M692,240 CONVENT AVE,5,10031,40.82074,-73.949097,5-8
06M293,CITY COLLEGE ACADEMY OF THE ARTS,60,408,446,416,M218,City College Academy of the Arts,M293,4600 BROADWAY,6,10040,40.86079,-73.930672,5-8
06M346,COMMUNITY HEALTH ACADEMY OF THE HEIGHTS,55,362,376,367,M814,Community Health Academy of the Heights,M346,504 WEST 158TH STREET,6,10032,40.833687,-73.942072,5-8
06M348,WASHINGTON HEIGHTS EXPEDITIONARY LEARNING SCHOOL,70,380,395,399,M143,Washington Heights Expeditionary Learning School,M348,511 WEST 182ND STREET,6,10033,40.848908,-73.930948,5-8
06M457,GEORGE WASHINGTON YABC,7,394,357,346,M465,George Washington Yabc,M457,549 AUDUBON AVENUE,6,10040,40.855954,-73.927051,5-8
06M462,HIGH SCHOOL FOR INTERNATIONAL BUSINESS AND FINANCE,76,365,384,378,M465,The College Academy,M462,549 AUDUBON AVENUE,6,10040,40.855954,-73.927051,5-8
06M463,HIGH SCHOOL FOR MEDIA AND COMMUNICATIONS,63,369,380,349,M465,High School for Media and Communications,M463,549 AUDUBON AVENUE,6,10040,40.855954,-73.927051,5-8
06M467,HIGH SCHOOL FOR LAW AND PUBLIC SERVICE,94,363,378,361,M465,High School for Law and Public Service,M467,549 AUDUBON AVENUE,6,10040,40.855954,-73.927051,5-8
06M468,HIGH SCHOOL FOR HEALTH CAREERS AND SCIENCES,24,400,422,402,M465,High School for Health Careers and Sciences,M468,549 AUDUBON AVENUE,6,10040,40.855954,-73.927051,5-8
06M540,A. PHILIP RANDOLPH CAMPUS HIGH SCHOOL,228,430,456,423,M540,A. Philip Randolph Campus High School,M540,443 WEST 135 STREET,6,10031,40.818188,-73.950356,5-8
07X221,SOUTH BRONX PREPARATORY: A COLLEGE BOARD SCHOOL,65,364,378,348,X149,South Bronx Preparatory: A College Board School,X221,360 EAST 145 STREET,7,10454,40.813983,-73.920782,5-8
07X321,CROTONA ACADEMY HIGH SCHOOL,9,379,364,382,X963,Crotona Academy High School,X321,639 ST. ANNS AVENUE,7,10455,40.816532,-73.911747,5-8
07X334,INTERNATIONAL COMMUNITY HIGH SCHOOL,34,310,324,311,X139,International Community High School,X334,345 BROOK AVENUE,7,10454,40.81004,-73.917792,5-8
07X427,COMMUNITY SCHOOL FOR SOCIAL JUSTICE,43,361,359,357,X884,Community School for Social Justice,X427,350 GERARD AVENUE,7,10451,40.815938,-73.930386,5-8
07X473,MOTT HAVEN VILLAGE PREPARATORY HIGH SCHOOL,63,351,375,371,X470,Mott Haven Village Preparatory High School,X473,701 ST. ANNS AVENUE,7,10455,40.81825,-73.91103,5-8
07X495,UNIVERSITY HEIGHTS SECONDARY SCHOOL,79,403,394,404,X470,University Heights Secondary School,X495,701 ST. ANNS AVENUE,7,10455,40.81825,-73.91103,5-8
07X500,HOSTOSsLINCOLN ACADEMY OF SCIENCE,66,420,426,411,X162,Hostos-Lincoln Academy of Science,X500,600 SAINT ANN'S AVENUE,7,10455,40.815498,-73.91224,5-8
07X520,FOREIGN LANGUAGE ACADEMY OF GLOBAL STUDIES,64,399,396,391,X155,Foreign Language Academy of Global Studies,X520,470 JACKSON AVENUE,7,10455,40.811162,-73.909804,5-8
07X527,BRONX LEADERSHIP ACADEMY II HIGH SCHOOL,62,362,378,363,X790,Bronx Leadership Academy II High School,X527,730 CONCOURSE VILLAGE WEST,7,10451,40.82231,-73.923829,5-8
07X547,NEW EXPLORERS HIGH SCHOOL,28,367,356,361,X790,New Explorers High School,X547,730 CONCOURSE VILLAGE WEST,7,10451,40.82231,-73.923829,5-8
07X548,URBAN ASSEMBLY SCHOOL FOR CAREERS IN SPORTS,44,387,411,383,X790,Urban Assembly School for Careers in Sports,X548,730 CONCOURSE VILLAGE WEST,7,10451,40.82231,-73.923829,5-8
07X551,BRONX ACADEMY OF LETTERS,51,413,381,407,X183,The Urban Assembly Bronx Academy of Letters,X551,339 MORRIS AVENUE,7,10451,40.813641,-73.925313,5-8
07X600,ALFRED E. SMITH CAREER AND TECHNICAL EDUCATION HIGH SCHOOL,76,394,400,364,X600,Alfred E. Smith Career and Technical Education Hig,X600,333 EAST 151 STREET,7,10451,40.818232,-73.919867,5-8
07X655,SAMUEL GOMPERS CAREER AND TECHNICAL EDUCATION HIGH SCHOOL,47,398,416,370,X655,Samuel Gompers Career and Technical Education High,X655,455 SOUTHERN BLVD,7,10455,40.810803,-73.907015,5-8
07X670,HEALTH OPPORTUNITIES HIGH SCHOOL,114,363,368,364,X884,Health Opportunities High School,X670,350 GERARD AVENUE,7,10451,40.815938,-73.930386,5-8
08X282,WOMEN'S ACADEMY OF EXCELLENCE,44,407,386,378,X174,Women's Academy of Excellence,X282,456 WHITE PLAINS ROAD,8,10473,40.814833,-73.85658,5-8
08X293,RENAISSANCE HIGH SCHOOL FOR MUSICAL THEATER & TECHNOLOGY,52,384,385,389,X405,Renaissance High School for Musical Theater & Tech,X293,3000 EAST TREMONT AVENUE,8,10461,40.840702,-73.838545,5-8
08X295,GATEWAY SCHOOL FOR ENVIRONMENTAL RESEARCH AND TECHNOLOGY,41,416,390,394,X450,Gateway School for Environmental Research and Tech,X295,1980 LAFAYETTE AVENUE,8,10473,40.82229,-73.856167,5-8
08X305,PABLO NERUDA ACADEMY FOR ARCHITECTURE AND WORLD STUDIES,67,337,361,340,X450,Pablo Neruda Academy,X305,1980 LAFAYETTE AVENUE,8,10473,40.82229,-73.856167,5-8
08X312,MILLENNIUM ART ACADEMY,67,387,402,375,X450,Millennium Art Academy,X312,1980 LAFAYETTE AVENUE,8,10473,40.82229,-73.856167,5-8
08X332,HOLCOMBE L. RUCKER SCHOOL OF COMMUNITY RESEARCH,39,363,371,350,X039,Holcombe L. Rucker School of Community Research,X332,965 LONGWOOD AVENUE,8,10459,40.817512,-73.898212,5-8
08X377,BRONX COMMUNITY HIGH SCHOOL,9,367,369,376,X450,Bronx Community High School,X377,1980 LAFAYETTE AVENUE,8,10473,40.82229,-73.856167,5-8
08X405,HERBERT H. LEHMAN HIGH SCHOOL,415,412,436,393,X405,Herbert H. Lehman High School.,X405,3000 EAST TREMONT AVENUE,8,10461,40.840702,-73.838545,5-8
08X408,HERBERT H. LEHMAN YABC,6,402,373,413,X405,Herbert H. Lehman Yabc,X408,3000 EAST TREMONT AVENUE,8,10461,40.840702,-73.838545,5-8
08X452,BRONX GUILD,39,369,371,365,X450,Bronx Guild,X452,1980 LAFAYETTE AVENUE,8,10473,40.82229,-73.856167,5-8
08X519,"FELISA RINCON DE GAUTIER INSTITUTE FOR LAW AND PUBLIC POLICY, THE",68,373,370,356,X972,Felisa Rincon de Gautier Institute for Law and Pub,X519,1440 STORY AVENUE,8,10473,40.821146,-73.881479,5-8
08X530,BANANA KELLY HIGH SCHOOL,54,373,381,377,X039,Banana Kelly High School,X530,965 LONGWOOD AVENUE,8,10459,40.817512,-73.898212,5-8
08X540,SCHOOL FOR COMMUNITY RESEARCH AND LEARNING,16,366,400,368,X450,School for Community Research and Learning,X540,1980 LAFAYETTE AVENUE,8,10473,40.82229,-73.856167,5-8
08X650,JANE ADDAMS HIGH SCHOOL FOR ACADEMIC CAREERS,78,377,359,376,X650,Jane Addams High School for Academic Careers,X650,900 TINTON AVENUE,8,10456,40.821675,-73.903546,5-8
09X227,BRONX EXPEDITIONARY LEARNING HIGH SCHOOL,39,324,376,349,X410,Bronx Collegiate Academy,X227,240 EAST 172 STREET,9,10457,40.840422,-73.91091,9-12
09X231,EAGLE ACADEMY FOR YOUNG MEN,78,373,387,374,X465,Eagle Academy for Young Men,X231,4143 THIRD AVENUE,9,10457,40.844958,-73.89705,9-12
09X239,"URBAN ASSEMBLY ACADEMY FOR HISTORY AND CITIZENSHIP FOR YOUNG MEN, THE",33,372,355,357,X410,Urban Assembly Academy for History and Citizenship,X239,240 EAST 172 STREET,9,10457,40.840422,-73.91091,9-12
09X241,"URBAN ASSEMBLY SCHOOL FOR APPLIED MATH AND SCIENCE, THE",80,411,464,415,X970,Urban Assembly School for Applied Math and Science,X241,1595 BATHGATE AVENUE,9,10457,40.839244,-73.901316,9-12
09X250,EXIMIUS COLLEGE PREPARATORY ACADEMY: A COLLEGE BOARD SCHOOL,50,393,394,382,X002,Eximius College Preparatory Academy: A College Boa,X250,1363 FULTON AVENUE,9,10456,40.833665,-73.902499,9-12
09X252,MOTT HALL BRONX HIGH SCHOOL,67,369,367,356,X970,Mott Hall Bronx High School,X252,1595 BATHGATE AVENUE,9,10457,40.839244,-73.901316,9-12
09X260,BRONX CENTER FOR SCIENCE AND MATHEMATICS,81,459,480,457,X002,Bronx Center for Science and Mathematics,X260,1363 FULTON AVENUE,9,10456,40.833665,-73.902499,9-12
09X263,VALIDUS PREPARATORY ACADEMY: AN EXPEDITIONARY LEARNING SCHOOL,74,356,363,356,X970,Validus Preparatory Academy: An Expeditionary Lear,X263,1595 BATHGATE AVENUE,9,10457,40.839244,-73.901316,9-12
09X276,LEADERSHIP INSTITUTE,30,361,353,367,X004,Leadership Institute,X276,1701 FULTON AVENUE,9,10457,40.840891,-73.898166,9-12
09X297,MORRIS ACADEMY FOR COLLABORATIVE STUDIES,38,386,386,376,X400,Morris Academy for Collaborative Studies,X297,1110 BOSTON ROAD,9,10456,40.827642,-73.904473,9-12
09X329,DREAMYARD PREPARATORY SCHOOL,51,382,365,391,X410,DreamYard Preparatory School,X329,240 EAST 172 STREET,9,10457,40.840422,-73.91091,9-12
09X365,ACADEMY FOR LANGUAGE AND TECHNOLOGY,54,315,339,297,X082,Academy for Language and Technology,X365,1700 MACOMBS ROAD,9,10453,40.849623,-73.91607,9-12
09X403,BRONX INTERNATIONAL HIGH SCHOOL,49,314,312,339,X400,Bronx International High School,X403,1110 BOSTON ROAD,9,10456,40.827642,-73.904473,9-12
09X404,SCHOOL FOR EXCELLENCE,32,363,360,351,X400,School for Excellence,X404,1110 BOSTON ROAD,9,10456,40.827642,-73.904473,9-12
09X412,BRONX HIGH SCHOOL OF BUSINESS,34,356,376,351,X410,Bronx High School of Business,X412,240 EAST 172 STREET,9,10457,40.840422,-73.91091,9-12
09X413,BRONX HIGH SCHOOL FOR MEDICAL SCIENCE,64,400,419,402,X410,Bronx High School for Medical Science,X413,240 EAST 172 STREET,9,10457,40.840422,-73.91091,9-12
09X414,JONATHAN LEVIN HIGH SCHOOL FOR MEDIA AND COMMUNICATIONS,35,379,364,379,X410,Jonathan Levin High School for Media and Communica,X414,240 EAST 172 STREET,9,10457,40.840422,-73.91091,9-12
09X505,"BRONX SCHOOL FOR LAW, GOVERNMENT AND JUSTICE",80,404,418,402,X460,"Bronx School for Law, Government and Justice",X505,244 EAST 163 STREET,9,10451,40.827607,-73.918681,9-12
09X517,FREDERICK DOUGLASS ACADEMY III SECONDARY SCHOOL,50,368,384,369,X148,Frederick Douglass Academy III Secondary School,X517,3630 THIRD AVENUE,9,10456,40.833511,-73.90449,9-12
09X525,BRONX LEADERSHIP ACADEMY HIGH SCHOOL,114,384,394,388,X876,Bronx Leadership Academy High School,X525,1710 WEBSTER AVENUE,9,10457,40.843588,-73.903236,9-12
09X543,HIGH SCHOOL FOR VIOLIN AND DANCE,27,353,315,371,X400,High School for Violin and Dance,X543,1110 BOSTON ROAD,9,10456,40.827642,-73.904473,9-12
10X141,RIVERDALE / KINGSBRIDGE ACADEMY (MIDDLE SCHOOL / HIGH SCHOOL 141),113,438,455,440,X141,Riverdale / Kingsbridge Academy (Middle School / H,X141,660 WEST 237 STREET,10,10463,40.888338,-73.913486,9-12
10X213,BRONX ENGINEERING AND TECHNOLOGY ACADEMY,86,373,412,365,X475,Bronx Engineering and Technology Academy,X213,99 TERRACE VIEW AVENUE,10,10463,40.877105,-73.912256,9-12
10X225,THEATRE ARTS PRODUCTION COMPANY SCHOOL,59,405,391,394,X137,Theatre Arts Production Company School,X225,2225 WEBSTER AVENUE,10,10457,40.854493,-73.896717,9-12
10X237,"THE MARIE CURIE SCHOOL FOR MEDICINE, NURSING, AND HEALTH PROFESSIONS",79,382,393,382,X143,"The Marie Curie School for Medicine, Nursing, and",X237,120 WEST 231 STREET,10,10463,40.875911,-73.901099,9-12
10X243,WEST BRONX ACADEMY FOR THE FUTURE,26,382,406,370,X435,West Bronx Academy for the Future,X243,500 EAST FORDHAM ROAD,10,10458,40.860043,-73.888267,9-12
10X268,KINGSBRIDGE INTERNATIONAL HIGH SCHOOL,52,304,356,302,X430,Kingsbridge International High School,X268,2780 RESERVOIR AVENUE,10,10468,40.870293,-73.898309,9-12
10X284,BRONX SCHOOL OF LAW AND FINANCE,54,402,395,385,X475,Bronx School of Law and Finance,X284,99 TERRACE VIEW AVENUE,10,10463,40.877105,-73.912256,9-12
10X342,INTERNATIONAL SCHOOL FOR LIBERAL ARTS,49,300,333,301,X430,International School for Liberal Arts,X342,2780 RESERVOIR AVENUE,10,10468,40.870293,-73.898309,9-12
10X368,INsTECH ACADEMY (M.S. / HIGH SCHOOL 368),111,390,408,383,X368,In-Tech Academy (M.S. / High School 368),X368,2975 TIBBETT AVENUE,10,10463,40.879368,-73.909896,9-12
10X374,KNOWLEDGE AND POWER PREPARATORY ACADEMY INTERNATIONAL HIGH SCHOOL (KAPPA),61,392,401,387,X435,Knowledge and Power Preparatory Academy Internatio,X374,500 EAST FORDHAM ROAD,10,10458,40.860043,-73.888267,9-12
10X397,ENGLISH LANGUAGE LEARNERS AND INTERNATIONAL SUPPORT PREPARATORY ACADEMY (ELLIS),38,343,356,330,X475,English Language Learners and International Suppor,X397,99 TERRACE VIEW AVENUE,10,10463,40.877105,-73.912256,9-12
10X433,HIGH SCHOOL FOR TEACHING AND THE PROFESSIONS,57,370,371,365,X430,High School for Teaching and the Professions,X433,2780 RESERVOIR AVENUE,10,10468,40.870293,-73.898309,9-12
10X434,BELMONT PREPARATORY HIGH SCHOOL,51,404,418,400,X435,Belmont Preparatory High School,X434,500 EAST FORDHAM ROAD,10,10458,40.860043,-73.888267,9-12
10X437,FORDHAM HIGH SCHOOL FOR THE ARTS,48,355,350,372,X435,Fordham High School for the Arts,X437,500 EAST FORDHAM ROAD,10,10458,40.860043,-73.888267,9-12
10X438,FORDHAM LEADERSHIP ACADEMY FOR BUSINESS AND TECHNOLOGY,63,367,385,367,X435,Fordham Leadership Academy for Business and Techno,X438,500 EAST FORDHAM ROAD,10,10458,40.860043,-73.888267,9-12
10X439,BRONX HIGH SCHOOL FOR LAW AND COMMUNITY SERVICE,65,366,364,352,X435,Bronx High School for Law and Community Service,X439,500 EAST FORDHAM ROAD,10,10458,40.860043,-73.888267,9-12
10X440,DEWITT CLINTON HIGH SCHOOL,443,419,426,410,X440,DeWitt Clinton High School,X440,100 WEST MOSHOLU PARKWAY SOUTH,10,10468,40.882178,-73.88691,9-12
10X442,"CELIA CRUZ BRONX HIGH SCHOOL OF MUSIC, THE",52,423,420,427,X430,"Celia Cruz Bronx High School of Music, The",X442,2780 RESERVOIR AVENUE,10,10468,40.870293,-73.898309,9-12
10X445,BRONX HIGH SCHOOL OF SCIENCE,731,632,688,649,X445,Bronx High School of Science,X445,75 WEST 205 STREET,10,10468,40.87759,-73.89104,9-12
10X475,JOHN F. KENNEDY HIGH SCHOOL,109,351,362,339,X475,John F. Kennedy High School,X475,99 TERRACE VIEW AVENUE,10,10463,40.877105,-73.912256,9-12
10X477,MARBLE HILL HIGH SCHOOL FOR INTERNATIONAL STUDIES,99,414,435,414,X475,Marble Hill High School for International Studies,X477,99 TERRACE VIEW AVENUE,10,10463,40.877105,-73.912256,9-12
10X546,BRONX THEATRE HIGH SCHOOL,68,348,362,354,X475,Bronx Theatre High School,X546,99 TERRACE VIEW AVENUE,10,10463,40.877105,-73.912256,9-12
10X549,DISCOVERY HIGH SCHOOL,55,372,379,364,X430,Discovery High School,X549,2780 RESERVOIR AVENUE,10,10468,40.870293,-73.898309,9-12
10X660,GRACE DODGE CAREER AND TECHNICAL EDUCATION HIGH SCHOOL,73,362,382,356,X660,Grace Dodge Career and Technical Education High Sc,X660,2474 CROTONA AVENUE,10,10458,40.855698,-73.882715,9-12
10X667,GRACE DODGE YABC,10,350,356,317,X660,Grace Dodge Yabc,X667,2474 CROTONA AVENUE,10,10458,40.855698,-73.882715,9-12
10X696,HIGH SCHOOL OF AMERICAN STUDIES AT LEHMAN COLLEGE,92,636,648,636,X905,High School of American Studies at Lehman College,X696,2925 GOULDEN AVENUE,10,10468,40.873938,-73.895382,9-12
11X249,BRONX HEALTH SCIENCES HIGH SCHOOL,74,370,381,382,X455,Bronx Health Sciences High School,X249,750 BAYCHESTER AVENUE,11,10475,40.874091,-73.833904,9-12
11X253,BRONX HIGH SCHOOL FOR WRITING AND COMMUNICATION ARTS,46,400,357,390,X425,Bronx High School for Writing and Communication Ar,X253,800 EAST GUN HILL ROAD,11,10467,40.875953,-73.86197,9-12
11X265,BRONX LAB SCHOOL,81,377,391,367,X425,Bronx Lab School,X265,800 EAST GUN HILL ROAD,11,10467,40.875953,-73.86197,9-12
11X270,ACADEMY FOR SCHOLARSHIP AND ENTREPRENEURSHIP: A COLLEGE BOARD SCHOOL,56,386,394,361,X362,Academy for Scholarship and Entrepreneurship: A Co,X270,921 EAST 228TH STREET,11,10466,40.887831,-73.852694,9-12
11X275,HIGH SCHOOL OF COMPUTERS AND TECHNOLOGY,72,381,376,354,X425,High School of Computers and Technology,X275,800 EAST GUN HILL ROAD,11,10467,40.875953,-73.86197,9-12
11X288,COLLEGIATE INSTITUTE FOR MATH AND SCIENCE,97,444,471,433,X415,Collegiate Institute for Math and Science,X288,925 ASTOR AVENUE,11,10469,40.859665,-73.861006,9-12
11X290,BRONX ACADEMY OF HEALTH CAREERS,69,387,365,383,X425,Bronx Academy of Health Careers,X290,800 EAST GUN HILL ROAD,11,10467,40.875953,-73.86197,9-12
11X299,ASTOR COLLEGIATE ACADEMY,60,387,391,391,X415,Astor Collegiate Academy,X299,925 ASTOR AVENUE,11,10469,40.859665,-73.861006,9-12
11X415,CHRISTOPHER COLUMBUS HIGH SCHOOL,121,367,361,353,X415,Christopher Columbus High School,X415,925 ASTOR AVENUE,11,10469,40.859665,-73.861006,9-12
11X418,BRONX HIGH SCHOOL FOR THE VISUAL ARTS,48,419,433,416,X839,Bronx High School for the Visual Arts,X418,2040 ANTIN PL,11,10462,40.851405,-73.865036,9-12
11X455,HARRY S TRUMAN HIGH SCHOOL,189,386,397,368,X455,Harry S Truman High School,X455,750 BAYCHESTER AVENUE,11,10475,40.874091,-73.833904,9-12
11X513,NEW WORLD HIGH SCHOOL,72,332,381,335,X362,New World High School,X513,921 EAST 228TH STREET,11,10466,40.887831,-73.852694,9-12
11X514,THE BRONXWOOD PREPARATORY ACADEMY,48,377,372,363,X362,The Bronxwood Preparatory Academy,X514,921 EAST 228TH STREET,11,10466,40.887831,-73.852694,9-12
11X541,GLOBAL ENTERPRISE HIGH SCHOOL,57,372,382,375,X415,Global Enterprise High School,X541,925 ASTOR AVENUE,11,10469,40.859665,-73.861006,9-12
11X542,PELHAM PREPARATORY ACADEMY,76,431,438,419,X415,Pelham Preparatory Academy,X542,925 ASTOR AVENUE,11,10469,40.859665,-73.861006,9-12
11X544,HIGH SCHOOL FOR CONTEMPORARY ARTS,55,383,378,365,X425,High School for Contemporary Arts,X544,800 EAST GUN HILL ROAD,11,10467,40.875953,-73.86197,9-12
11X545,BRONX AEROSPACE HIGH SCHOOL,46,388,393,382,X425,Bronx Aerospace High School,X545,800 EAST GUN HILL ROAD,11,10467,40.875953,-73.86197,9-12
12X248,"METROPOLITAN HIGH SCHOOL, THE",49,347,367,341,X099,"Metropolitan High School, The",X248,1180 REV. J.A. POLITE AVE.,12,10459,40.827315,-73.897612,9-12
12X251,EXPLORATIONS ACADEMY,57,381,381,360,X098,Explorations Academy,X251,1619 BOSTON ROAD,12,10460,40.8359,-73.890458,9-12
12X262,PERFORMANCE CONSERVATORY HIGH SCHOOL,30,361,353,360,X098,Performance Conservatory High School,X262,1619 BOSTON ROAD,12,10460,40.8359,-73.890458,9-12
12X267,BRONX LATIN,36,408,432,411,X158,Bronx Latin,X267,800 HOME STREET,12,10456,40.827743,-73.900105,9-12
12X271,EAST BRONX ACADEMY FOR THE FUTURE,46,366,378,358,X973,East Bronx Academy for the Future,X271,1716 SOUTHERN BOULEVARD,12,10460,40.836356,-73.888361,9-12
12X278,PEACE AND DIVERSITY ACADEMY,34,390,401,364,X099,Peace and Diversity Academy,X278,1180 REV. J.A. POLITE AVE.,12,10459,40.827315,-73.897612,9-12
12X388,PAN AMERICAN INTERNATIONAL HIGH SCHOOL AT MONROE,30,321,351,298,X420,Pan American International High School at Monroe,X388,1300 BOYNTON AVENUE,12,10472,40.831601,-73.878912,9-12
12X446,ARTURO A. SCHOMBURG SATELLITE ACADEMY BRONX,14,380,372,349,X401,Arturo A. Schomburg Satellite Academy Bronx,X446,1010 REV. J. A. POLITE AVENUE,12,10459,40.823532,-73.898872,9-12
12X480,BRONX REGIONAL HIGH SCHOOL,16,398,385,398,X401,Bronx Regional High School,X480,1010 REV. J. A. POLITE AVENUE,12,10459,40.823532,-73.898872,9-12
12X550,HIGH SCHOOL OF WORLD CULTURES,42,304,323,312,X420,High School of World Cultures,X550,1300 BOYNTON AVENUE,12,10472,40.831601,-73.878912,9-12
12X682,FANNIE LOU HAMER FREEDOM HIGH SCHOOL,72,342,346,341,X878,Fannie Lou Hamer Freedom High School,X682,1021 JENNINGS STREET,12,10460,40.83087,-73.88626,9-12
12X684,WINGS ACADEMY,66,378,374,362,X879,Wings Academy,X684,1122 EAST 180 STREET,12,10460,40.841794,-73.875366,9-12
12X690,MONROE ACADEMY FOR BUSINESS/LAW,31,375,387,376,X420,Monroe Academy for Business/Law,X690,1300 BOYNTON AVENUE,12,10472,40.831601,-73.878912,9-12
12X692,MONROE ACADEMY FOR VISUAL ARTS & DESIGN,43,332,357,349,X420,Monroe Academy for Visual Arts & Design,X692,1300 BOYNTON AVENUE,12,10472,40.831601,-73.878912,9-12
13K265,DR. SUSAN S. MCKINNEY SECONDARY SCHOOL OF THE ARTS,29,352,349,373,K265,Dr. Susan S. McKinney Secondary School of the Arts,K265,101 PARK AVENUE,13,11205,40.696324,-73.97578,13-16
13K350,URBAN ASSEMBLY HIGH SCHOOL OF MUSIC AND ART,52,360,364,356,K805,Urban Assembly High School of Music and Art,K350,49 FLATBUSH AVENUE EXTENSION,13,11201,40.697339,-73.985016,13-16
13K412,"BROOKLYN COMMUNITY HIGH SCHOOL OF COMMUNICATION, ARTS AND MEDIA",37,375,355,384,K117,"Brooklyn Community High School of Communication, A",K412,300 WILLOUGHBY AVENUE,13,11205,40.692642,-73.958794,13-16
13K419,"SCIENCE SKILLS CENTER HIGH SCHOOL FOR SCIENCE, TECHNOLOGY AND THE CREATIVE ARTS",92,399,417,395,K805,"Science Skills Center High School for Science, Tec",K419,49 FLATBUSH AVENUE EXTENSION,13,11201,40.697339,-73.985016,13-16
13K430,BROOKLYN TECHNICAL HIGH SCHOOL,1277,587,659,587,K430,Brooklyn Technical High School,K430,29 FT GREENE PLACE,13,11217,40.688834,-73.976905,13-16
13K439,BROOKLYN INTERNATIONAL HIGH SCHOOL,90,305,364,312,K805,Brooklyn International High School,K439,49 FLATBUSH AVENUE EXTENSION,13,11201,40.697339,-73.985016,13-16
13K483,THE URBAN ASSEMBLY SCHOOL FOR LAW AND JUSTICE,105,400,417,389,K313,The Urban Assembly School for Law and Justice,K483,283 ADAMS STREET,13,11201,40.694682,-73.988853,13-16
13K499,ACORN COMMUNITY HIGH SCHOOL,72,384,364,368,K909,ACORN Community High School,K499,561 GRAND AVENUE,13,11238,40.678488,-73.962105,13-16
13K553,BROOKLYN ACADEMY HIGH SCHOOL,8,435,383,379,K458,Brooklyn Academy High School,K553,832 MARCY AVENUE,13,11216,40.685004,-73.947152,13-16
13K575,BEDFORD STUYVESANT PREPARATORY HIGH SCHOOL,13,398,391,394,K458,Bedford Stuyvesant Preparatory High School,K575,832 MARCY AVENUE,13,11216,40.685004,-73.947152,13-16
13K595,BEDFORD ACADEMY HIGH SCHOOL,89,438,443,431,K994,Bedford Academy High School,K595,1119 BEDFORD AVENUE,13,11216,40.68538,-73.954302,13-16
13K605,GEORGE WESTINGHOUSE CAREER AND TECHNICAL EDUCATION HIGH SCHOOL,85,406,391,392,K580,George Westinghouse Career and Technical Education,K605,105 JOHNSON STREET,13,11201,40.694926,-73.986015,13-16
13K670,BENJAMIN BANNEKER ACADEMY,185,471,472,448,K914,Benjamin Banneker Academy,K670,71-77 CLINTON AVENUE,13,11205,40.695332,-73.969243,13-16
13K674,"CITY POLYTECHNIC HIGH SCHOOL OF ENGINEERING, ARCHITECTURE, AND TECHNOLOGY",20,441,499,413,K580,"City Polytechnic High School of Engineering, Archi",K674,105 JOHNSON STREET,13,11201,40.694926,-73.986015,13-16
14K071,JUAN MOREL CAMPOS SECONDARY SCHOOL,102,365,361,359,K071,Juan Morel Campos Secondary School,K071,215 HEYWARD STREET,14,11206,40.703624,-73.953146,13-16
14K449,"BROOKLYN LATIN SCHOOL, THE",72,586,584,570,K049,"Brooklyn Latin School, The",K449,223 GRAHAM AVENUE,14,11206,40.709941,-73.943641,13-16
14K454,GREEN SCHOOL: AN ACADEMY FOR ENVIRONMENTAL CAREERS,41,407,386,396,K049,Green School: An Academy for Environmental Careers,K454,223 GRAHAM AVENUE,14,11206,40.709941,-73.943641,13-16
14K474,PROGRESS HIGH SCHOOL FOR PROFESSIONAL CAREERS,144,364,379,371,K450,PROGRESS High School for Professional Careers,K474,850 GRAND STREET,14,11211,40.712184,-73.939722,13-16
14K477,SCHOOL FOR LEGAL STUDIES,134,413,396,395,K450,School for Legal Studies,K477,850 GRAND STREET,14,11211,40.712184,-73.939722,13-16
14K478,"THE HIGH SCHOOL FOR ENTERPRISE, BUSINESS AND TECHNOLOGY",142,398,421,396,K450,"The High School for Enterprise, Business and Techn",K478,850 GRAND STREET,14,11211,40.712184,-73.939722,13-16
14K488,BROOKLYN PREPARATORY HIGH SCHOOL,42,367,373,350,K650,Brooklyn Preparatory High School,K488,257 NORTH  6 STREET,14,11211,40.715073,-73.954754,13-16
14K558,WILLIAMSBURG HIGH SCHOOL FOR ARCHITECTURE AND DESIGN,72,363,385,364,K650,Williamsburg High School for Architecture and Desi,K558,257 NORTH  6 STREET,14,11211,40.715073,-73.954754,13-16
14K561,WILLIAMSBURG PREPARATORY SCHOOL,113,397,410,380,K650,Williamsburg Preparatory School,K561,257 NORTH  6 STREET,14,11211,40.715073,-73.954754,13-16
14K586,LYONS COMMUNITY SCHOOL,31,371,377,355,K049,Lyons Community School,K586,223 GRAHAM AVENUE,14,11206,40.709941,-73.943641,13-16
14K610,AUTOMOTIVE HIGH SCHOOL,94,367,376,350,K610,Automotive High School,K610,50 BEDFORD AVENUE,14,11222,40.721981,-73.953281,13-16
14K632,FRANCES PERKINS ACADEMY,12,382,372,368,K610,Frances Perkins Academy,K632,50 BEDFORD AVENUE,14,11222,40.721981,-73.953281,13-16
14K685,EL PUENTE ACADEMY FOR PEACE AND JUSTICE,28,359,335,341,K778,El Puente Academy for Peace and Justice,K685,250 HOOPER STREET,14,11211,40.705898,-73.955611,13-16
15K429,BROOKLYN SCHOOL FOR GLOBAL STUDIES,52,361,367,383,K293,Brooklyn School for Global Studies,K429,284 BALTIC STREET,15,11201,40.685419,-73.993351,13-16
15K448,BROOKLYN SECONDARY SCHOOL FOR COLLABORATIVE STUDIES,76,393,399,387,K142,Brooklyn Secondary School for Collaborative Studie,K448,610 HENRY STREET,15,11231,40.68007,-74.001377,13-16
15K462,SECONDARY SCHOOL FOR LAW,59,398,411,394,K460,Secondary School for Law,K462,237 7 AVENUE,15,11215,40.669629,-73.979287,13-16
15K463,SECONDARY SCHOOL FOR JOURNALISM,58,397,391,381,K460,Secondary School for Journalism,K463,237 7 AVENUE,15,11215,40.669629,-73.979287,13-16
15K464,PARK SLOPE COLLEGIATE,72,379,416,380,K460,Park Slope Collegiate,K464,237 7 AVENUE,15,11215,40.669629,-73.979287,13-16
15K497,SCHOOL FOR INTERNATIONAL STUDIES,64,405,415,392,K293,School for International Studies,K497,284 BALTIC STREET,15,11201,40.685419,-73.993351,13-16
15K519,COBBLE HILL SCHOOL OF AMERICAN STUDIES,77,398,402,385,K804,Cobble Hill School of American Studies,K519,347 BALTIC STREET,15,11201,40.684524,-73.990993,13-16
15K530,METROPOLITAN CORPORATE ACADEMY HIGH SCHOOL,28,368,365,368,K806,Metropolitan Corporate Academy High School,K530,362 SCHERMERHORN STREET,15,11217,40.686499,-73.979649,13-16
15K656,BROOKLYN HIGH SCHOOL OF THE ARTS,141,426,421,411,K655,Brooklyn High School of the Arts,K656,345 DEAN STREET,15,11217,40.683559,-73.98027,13-16
15K698,SOUTH BROOKLYN COMMUNITY HIGH SCHOOL,8,430,416,425,K825,South Brooklyn Community High School,K698,173 CONOVER STREET,15,11231,40.677969,-74.014363,13-16
16K393,FREDERICK DOUGLASS ACADEMY IV SECONDARY SCHOOL,20,355,355,358,K026,Frederick Douglass Academy IV Secondary School,K393,1014 LAFAYETTE AVENUE,16,11221,40.692126,-73.931731,13-16
16K455,BOYS AND GIRLS HIGH SCHOOL,131,365,370,362,K455,Boys and Girls High School,K455,1700 FULTON STREET,16,11213,40.67944,-73.932407,13-16
16K498,BROOKLYN HIGH SCHOOL FOR LAW AND TECHNOLOGY,46,362,372,358,K987,Brooklyn High School for Law and Technology,K498,1396 BROADWAY,16,11221,40.688831,-73.920906,13-16
16K594,GOTHAM PROFESSIONAL ARTS ACADEMY,36,370,372,351,K040,Gotham Professional Arts Academy,K594,265 RALPH AVENUE,16,11233,40.680463,-73.922264,13-16
17K382,ACADEMY FOR COLLEGE PREPARATION AND CAREER EXPLORATION: A COLLEGE BOARD SCHOOL,59,396,374,369,K465,Academy for College Preparation and Career Explora,K382,911 FLATBUSH AVENUE,17,11226,40.649787,-73.95855,17-20
17K408,ACADEMY OF HOSPITALITY AND TOURISM,57,352,342,351,K465,Academy of Hospitality and Tourism,K408,911 FLATBUSH AVENUE,17,11226,40.649787,-73.95855,17-20
17K489,W.E.B. DUBOIS ACADEMIC HIGH SCHOOL,7,394,364,334,K824,W.E.B. Dubois Academic High School,K489,402 EASTERN PARKWAY,17,11225,40.6701,-73.954972,17-20
17K524,INTERNATIONAL HIGH SCHOOL AT PROSPECT HEIGHTS,71,287,335,291,K440,International High School at Prospect Heights,K524,883 CLASSON AVENUE,17,11225,40.670349,-73.961695,17-20
17K528,THE HIGH SCHOOL FOR GLOBAL CITIZENSHIP,46,403,385,388,K440,The High School for Global Citizenship,K528,883 CLASSON AVENUE,17,11225,40.670349,-73.961695,17-20
17K531,"SCHOOL FOR HUMAN RIGHTS, THE",35,348,381,359,K470,"School for Human Rights, The",K531,600 KINGSTON AVENUE,17,11203,40.658893,-73.942458,17-20
17K533,SCHOOL FOR DEMOCRACY AND LEADERSHIP,38,377,404,372,K470,School for Democracy and  Leadership,K533,600 KINGSTON AVENUE,17,11203,40.658893,-73.942458,17-20
17K537,HIGH SCHOOL FOR YOUTH AND COMMUNITY DEVELOPMENT AT ERASMUS,73,338,349,340,K465,High School for Youth and Community Development at,K537,911 FLATBUSH AVENUE,17,11226,40.649787,-73.95855,17-20
17K539,HIGH SCHOOL FOR SERVICE & LEARNING AT ERASMUS,61,362,375,368,K465,High School for Service & Learning at Erasmus,K539,911 FLATBUSH AVENUE,17,11226,40.649787,-73.95855,17-20
17K543,"SCIENCE, TECHNOLOGY AND RESEARCH EARLY COLLEGE HIGH SCHOOL AT ERASMUS",69,457,462,441,K465,"Science, Technology and Research Early College Hig",K543,911 FLATBUSH AVENUE,17,11226,40.649787,-73.95855,17-20
17K544,INTERNATIONAL ARTS BUSINESS SCHOOL,54,386,391,369,K470,International Arts Business School,K544,600 KINGSTON AVENUE,17,11203,40.658893,-73.942458,17-20
17K546,HIGH SCHOOL FOR PUBLIC SERVICE: HEROES OF TOMORROW,79,418,441,414,K470,High School for Public Service: Heroes  of Tomorro,K546,600 KINGSTON AVENUE,17,11203,40.658893,-73.942458,17-20
17K547,BROOKLYN ACADEMY OF SCIENCE AND THE ENVIRONMENT,63,388,382,373,K440,Brooklyn Academy of Science and the Environment,K547,883 CLASSON AVENUE,17,11225,40.670349,-73.961695,17-20
17K548,BROOKLYN SCHOOL FOR MUSIC & THEATRE,48,385,393,373,K440,Brooklyn School for Music & Theatre,K548,883 CLASSON AVENUE,17,11225,40.670349,-73.961695,17-20
17K568,BROWNSVILLE ACADEMY HIGH SCHOOL,16,372,356,335,K907,Brownsville Academy High School,K568,1150 EAST NEW YORK AVENUE,17,11212,40.666518,-73.924057,17-20
17K590,MEDGAR EVERS COLLEGE PREPARATORY SCHOOL,165,476,481,479,K590,Medgar Evers College Preparatory School,K590,1186 CARROLL STREET,17,11225,40.667195,-73.951167,17-20
17K600,CLARA BARTON HIGH SCHOOL,259,425,413,413,K600,Clara Barton High School,K600,901 CLASSON AVENUE,17,11225,40.669567,-73.961962,17-20
17K625,PAUL ROBESON HIGH SCHOOL,53,365,363,355,K625,Paul Robeson High School,K625,150 ALBANY AVENUE,17,11213,40.675612,-73.938843,17-20
18K563,IT TAKES A VILLAGE ACADEMY,56,313,320,330,K415,It Takes a Village Academy,K563,5800 TILDEN AVENUE,18,11203,40.648657,-73.922171,17-20
18K566,BROOKLYN GENERATION SCHOOL,29,374,377,394,K515,Brooklyn Generation School,K566,6565 FLATLANDS AVENUE,18,11236,40.633285,-73.916735,17-20
18K567,BROOKLYN THEATRE ARTS HIGH SCHOOL,54,383,358,377,K515,Brooklyn Theatre Arts High School,K567,6565 FLATLANDS AVENUE,18,11236,40.633285,-73.916735,17-20
18K569,KURT HAHN EXPEDITIONARY LEARNING SCHOOL,43,368,378,346,K415,Kurt Hahn Expeditionary Learning School,K569,5800 TILDEN AVENUE,18,11203,40.648657,-73.922171,17-20
18K576,VICTORY COLLEGIATE HIGH SCHOOL,63,387,377,379,K515,Victory Collegiate High School,K576,6565 FLATLANDS AVENUE,18,11236,40.633285,-73.916735,17-20
18K578,BROOKLYN BRIDGE ACADEMY,17,384,362,351,K515,Brooklyn Bridge Academy,K578,6565 FLATLANDS AVENUE,18,11236,40.633285,-73.916735,17-20
18K589,ARTS & MEDIA PREPARATORY ACADEMY,48,361,360,359,K232,Arts & Media Preparatory Academy,K589,905 WINTHROP STREET,18,11203,40.65843,-73.929076,17-20
18K617,HIGH SCHOOL FOR INNOVATION IN ADVERTISING AND MEDIA,37,404,393,386,K500,High School for Innovation in Advertising and Medi,K617,1600 ROCKAWAY PARKWAY,18,11236,40.641474,-73.898254,17-20
18K629,CULTURAL ACADEMY FOR THE ARTS AND SCIENCES,33,393,395,381,K415,Cultural Academy for the Arts and Sciences,K629,5800 TILDEN AVENUE,18,11203,40.648657,-73.922171,17-20
18K633,HIGH SCHOOL FOR MEDICAL PROFESSIONS,75,386,380,393,K500,High School for Medical Professions,K633,1600 ROCKAWAY PARKWAY,18,11236,40.641474,-73.898254,17-20
18K635,OLYMPUS ACADEMY,7,400,370,370,K242,Olympus Academy,K635,755 EAST  100 STREET,18,11236,40.645685,-73.8989,17-20
18K637,ACADEMY FOR CONSERVATION AND THE ENVIRONMENT,35,363,381,367,K515,Academy for Conservation and the Environment,K637,6565 FLATLANDS AVENUE,18,11236,40.633285,-73.916735,17-20
18K642,URBAN ACTION ACADEMY,40,376,385,374,K500,Urban Action Academy,K642,1600 ROCKAWAY PARKWAY,18,11236,40.641474,-73.898254,17-20
18K673,EAST BROOKLYN COMMUNITY HIGH SCHOOL,12,410,403,378,K860,East Brooklyn Community High School,K673,9517 KINGS HIGHWAY,18,11212,40.65911,-73.920368,17-20
19K409,EAST NEW YORK FAMILY ACADEMY,54,416,432,394,K819,East New York Family Academy,K409,2057 LINDEN BOULEVARD,19,11207,40.661072,-73.886942,17-20
19K502,FDNY HIGH SCHOOL FOR FIRE AND LIFE SAFETY,37,341,349,333,K435,FDNY High School for Fire and Life Safety,K502,400 PENNSYLVANIA AVENUE,19,11207,40.667456,-73.894747,17-20
19K504,HIGH SCHOOL FOR CIVIL RIGHTS,47,363,349,342,K435,High School for Civil Rights,K504,400 PENNSYLVANIA AVENUE,19,11207,40.667456,-73.894747,17-20
19K507,PERFORMING ARTS AND TECHNOLOGY HIGH SCHOOL,61,380,386,383,K435,Performing Arts and Technology High School,K507,400 PENNSYLVANIA AVENUE,19,11207,40.667456,-73.894747,17-20
19K510,WORLD ACADEMY FOR TOTAL COMMUNITY HEALTH HIGH SCHOOL,68,371,365,370,K435,World Academy for Total Community Health High Scho,K510,400 PENNSYLVANIA AVENUE,19,11207,40.667456,-73.894747,17-20
19K583,MULTICULTURAL HIGH SCHOOL,29,279,322,286,K420,Multicultural High School,K583,999 JAMAICA AVENUE,19,11208,40.691146,-73.868328,17-20
19K615,TRANSIT TECH CAREER AND TECHNICAL EDUCATION HIGH SCHOOL,182,395,418,380,K615,Transit Tech Career and Technical Education High S,K615,1 WELLS STREET,19,11208,40.678276,-73.87596,17-20
19K618,ACADEMY OF INNOVATIVE TECHNOLOGY,60,371,371,354,K420,Academy of Innovative Technology,K618,999 JAMAICA AVENUE,19,11208,40.691146,-73.868328,17-20
19K639,BROOKLYN LAB SCHOOL,57,360,385,363,K420,Brooklyn Lab School,K639,999 JAMAICA AVENUE,19,11208,40.691146,-73.868328,17-20
19K659,CYPRESS HILLS COLLEGIATE PREPARATORY SCHOOL,51,376,385,368,K420,Cypress Hills Collegiate Preparatory School,K659,999 JAMAICA AVENUE,19,11208,40.691146,-73.868328,17-20
19K660,W. H. MAXWELL CAREER AND TECHNICAL EDUCATION HIGH SCHOOL,74,370,369,363,K660,W. H. Maxwell Career and Technical Education High,K660,145 PENNSYLVANIA AVENUE,19,11207,40.674135,-73.89643,17-20
19K683,"THE SCHOOL FOR CLASSICS: AN ACADEMY OF THINKERS, WRITERS AND PERFORMERS",38,383,400,374,K218,"The School for Classics: An Academy of Thinkers, W",K683,370 FOUNTAIN AVENUE,19,11208,40.670724,-73.874208,17-20
20K445,NEW UTRECHT HIGH SCHOOL,456,402,471,399,K445,New Utrecht High School,K445,1601 80 STREET,20,11214,40.613262,-74.003404,17-20
20K485,HIGH SCHOOL OF TELECOMMUNICATION ARTS AND TECHNOLOGY,238,425,474,424,K485,High School of  Telecommunication Arts and Technol,K485,350 67 STREET,20,11220,40.637282,-74.023849,17-20
20K490,FORT HAMILTON HIGH SCHOOL,694,417,478,411,K490,Fort Hamilton High School,K490,8301 SHORE ROAD,20,11209,40.627835,-74.040046,17-20
20K505,FRANKLIN DELANO ROOSEVELT HIGH SCHOOL,385,383,486,375,K505,Franklin Delano Roosevelt High School,K505,5800 20 AVENUE,20,11204,40.620446,-73.981795,17-20
20K658,FRANKLIN DELANO ROOSEVELT YABC,18,338,477,316,K505,Franklin Delano Roosevelt YABC,K658,5800 20 AVENUE,20,11204,40.620446,-73.981795,17-20
21K337,INTERNATIONAL HIGH SCHOOL AT LAFAYETTE,54,326,386,314,K400,International High School at Lafayette,K337,2630 BENSON AVENUE,21,11214,40.594291,-73.98577,21-24
21K344,RACHEL CARSON HIGH SCHOOL FOR COASTAL STUDIES,54,402,427,408,K303,Rachel Carson High School for Coastal Studies,K344,521 WEST AVENUE,21,11224,40.582533,-73.973132,21-24
21K348,HIGH SCHOOL OF SPORTS MANAGEMENT,39,388,398,378,K400,High School of Sports Management,K348,2630 BENSON AVENUE,21,11214,40.594291,-73.98577,21-24
21K410,ABRAHAM LINCOLN HIGH SCHOOL,475,396,437,393,K410,Abraham Lincoln High School,K410,2800 OCEAN PARKWAY,21,11235,40.581681,-73.967308,21-24
21K525,EDWARD R. MURROW HIGH SCHOOL,727,468,496,467,K525,Edward R. Murrow High School,K525,1600 AVENUE L,21,11230,40.620525,-73.959285,21-24
21K540,JOHN DEWEY HIGH SCHOOL,448,404,468,390,K540,John Dewey High School,K540,50 AVENUE X,21,11223,40.589268,-73.981738000000007,21-24
21K559,LIFE ACADEMY HIGH SCHOOL FOR FILM AND MUSIC,40,384,375,365,K400,Life Academy High School for Film and Music,K559,2630 BENSON AVENUE,21,11214,40.594291,-73.98577,21-24
21K572,EXPEDITIONARY LEARNING SCHOOL FOR COMMUNITY LEADERS,40,353,370,356,K400,Expeditionary Learning School for Community Leader,K572,2630 BENSON AVENUE,21,11214,40.594291,-73.98577,21-24
21K620,WILLIAM E. GRADY CAREER AND TECHNICAL EDUCATION HIGH SCHOOL,95,394,414,376,K620,William E. Grady Career and Technical Education Hi,K620,25 BRIGHTON  4TH ROAD,21,11235,40.582585,-73.963477,21-24
21K690,BROOKLYN STUDIO SECONDARY SCHOOL,119,429,449,435,K721,Brooklyn Studio Secondary School,K690,8310 21ST AVENUE,21,11214,40.604879,-73.994404,21-24
21K728,LIBERATION DIPLOMA PLUS,10,411,369,373,K728,Liberation Diploma Plus,K728,2865 WEST 19TH STREET,21,11224,40.577208,-73.985953,21-24
22K405,MIDWOOD HIGH SCHOOL,824,478,519,476,K405,Midwood High School,K405,2839 BEDFORD AVENUE,22,11210,40.633237,-73.952929,21-24
22K425,JAMES MADISON HIGH SCHOOL,518,436,475,439,K425,James Madison High School,K425,3787 BEDFORD AVENUE,22,11229,40.609912,-73.948512,21-24
22K495,SHEEPSHEAD BAY HIGH SCHOOL,236,383,392,370,K495,Sheepshead Bay High School,K495,3000 AVENUE X,22,11235,40.594124,-73.937696,21-24
22K535,LEON M. GOLDSTEIN HIGH SCHOOL FOR THE SCIENCES,259,524,561,542,K535,Leon M. Goldstein High School for the Sciences,K535,1830 SHORE BOULEVARD,22,11235,40.580894,-73.935952,21-24
22K555,BROOKLYN COLLEGE ACADEMY,131,456,456,440,K917,Brooklyn College Academy,K555,350 CONEY ISLAND AVENUE,15,11218,40.649404,-73.971736,13-16
23K493,BROOKLYN COLLEGIATE: A COLLEGE BOARD SCHOOL,60,389,409,387,K055,Brooklyn Collegiate: A College Board School,K493,2021 BERGEN STREET,23,11233,40.674103,-73.913273,21-24
23K514,FREDERICK DOUGLASS ACADEMY VII HIGH SCHOOL,55,361,371,359,K175,Frederick Douglass Academy VII High School,K514,226 BRISTOL STREET,23,11212,40.665878,-73.911705,21-24
23K643,BROOKLYN DEMOCRACY ACADEMY,11,349,338,331,K275,Brooklyn Democracy Academy,K643,985 ROCKAWAY AVENUE,23,11212,40.656068,-73.907245,21-24
23K646,ASPIRATIONS DIPLOMA PLUS HIGH SCHOOL,7,311,371,311,K894,Aspirations Diploma Plus High School,K646,1495 HERKIMER STREET,23,11207,40.67715,-73.903953,21-24
23K647,METROPOLITAN DIPLOMA PLUS HIGH SCHOOL,17,350,346,332,K275,Metropolitan Diploma Plus High School,K647,985 ROCKAWAY AVENUE,23,11212,40.656068,-73.907245,21-24
23K697,TEACHERS PREPARATORY HIGH SCHOOL,69,392,416,388,K175,Teachers Preparatory High School,K697,226 BRISTOL STREET,23,11212,40.665878,-73.911705,21-24
24Q264,ACADEMY OF FINANCE AND ENTERPRISE,89,405,454,421,Q735,Academy of Finance and  Enterprise,Q264,30-20 THOMSON AVENUE,24,11101,40.745095,-73.936635,21-24
24Q267,HIGH SCHOOL OF APPLIED COMMUNICATION,39,406,413,400,Q735,High School of Applied Communication,Q267,30-20 THOMSON AVENUE,24,11101,40.745095,-73.936635,21-24
24Q293,CIVIC LEADERSHIP ACADEMY,69,404,429,407,Q744,Civic Leadership Academy,Q293,45-10 94TH STREET,24,11373,40.74373,-73.870642,21-24
24Q296,PAN AMERICAN INTERNATIONAL HIGH SCHOOL,55,317,323,311,Q744,Pan American International High School,Q296,45-10 94TH STREET,24,11373,40.74373,-73.870642,21-24
24Q299,BARD HIGH SCHOOL EARLY COLLEGE II,155,545,568,550,Q735,Bard High School Early College Queens,Q299,30-20 THOMSON AVENUE,24,11101,40.745095,-73.936635,21-24
24Q455,NEWTOWN HIGH SCHOOL,320,383,440,380,Q455,Newtown High School,Q455,48-01 90 STREET,24,11373,40.741122,-73.874721,21-24
24Q485,GROVER CLEVELAND HIGH SCHOOL,241,395,420,396,Q485,Grover Cleveland High School,Q485,21-27 HIMROD STREET,24,11385,40.711033,-73.908814,21-24
24Q520,MIDDLE COLLEGE HIGH SCHOOL AT LAGUARDIA COMMUNITY COLLEGE,58,399,393,385,Q520,Middle College High School at LaGuardia Community,Q520,45-35 VAN DAM STREET,24,11101,40.744412,-73.93364,21-24
24Q530,INTERNATIONAL HIGH SCHOOL AT LAGUARDIA COMMUNITY COLLEGE,69,326,409,329,Q520,International High School at LaGuardia Community C,Q530,45-35 VAN DAM STREET,24,11101,40.744412,-73.93364,21-24
24Q550,HIGH SCHOOL FOR ARTS AND BUSINESS,138,391,403,380,Q456,High School for Arts and Business,Q550,105-25 HORACE HARDING EXPY N,24,11368,40.737427,-73.853178,21-24
24Q560,"ROBERT F. WAGNER, JR. SECONDARY SCHOOL FOR ARTS AND TECHNOLOGY",80,443,447,440,Q891,"Robert F. Wagner, Jr. Secondary School for Arts an",Q560,47-07 30TH PLACE,24,11101,40.742839,-73.936782,21-24
24Q600,QUEENS VOCATIONAL AND TECHNICAL HIGH SCHOOL,155,417,447,406,Q600,Queens Vocational and Technical High School,Q600,37-02 47 AVENUE,24,11101,40.742205,-73.928219,21-24
24Q610,AVIATION CAREER & TECHNICAL EDUCATION HIGH SCHOOL,396,445,496,423,Q610,Aviation Career & Technical Education High School,Q610,45-30 36 STREET,24,11101,40.743509,-73.929076,21-24
25Q252,"QUEENS SCHOOL OF INQUIRY, THE",58,455,498,443,Q168,"Queens School of Inquiry, The",Q252,158-40 76 ROAD,25,11366,40.724458,-73.810216,25-28
25Q263,FLUSHING INTERNATIONAL HIGH SCHOOL,45,314,417,318,Q189,Flushing International High School,Q263,144-80 BARCLAY AVENUE,25,11355,40.759844,-73.820548,25-28
25Q281,EASTsWEST SCHOOL OF INTERNATIONAL STUDIES,59,416,463,392,Q237,East-West School of International Studies,Q281,46-21 COLDEN STREET,25,11355,40.749545,-73.822073,25-28
25Q285,WORLD JOURNALISM PREPARATORY: A COLLEGE BOARD SCHOOL,63,471,489,481,Q025,World Journalism Preparatory: A College Board Scho,Q285,34-65 192 STREET,25,11358,40.765133,-73.790083,25-28
25Q425,JOHN BOWNE HIGH SCHOOL,558,397,451,395,Q425,John Bowne High School,Q425,63-25 MAIN STREET,25,11367,40.738139,-73.824944,25-28
25Q460,FLUSHING HIGH SCHOOL,347,393,441,382,Q460,Flushing High School,Q460,35-01 UNION STREET,25,11354,40.765166,-73.82789,25-28
25Q467,FLUSHING YABC,9,378,373,344,Q460,Flushing Yabc,Q467,35-01 UNION STREET,25,11354,40.765166,-73.82789,25-28
25Q525,TOWNSEND HARRIS HIGH SCHOOL,278,621,651,638,Q515,Townsend Harris High School,Q525,149-11 MELBOURNE AVENUE,25,11367,40.73439,-73.821392,25-28
25Q540,QUEENS ACADEMY HIGH SCHOOL,17,398,382,388,Q023,Queens Academy High School,Q540,138-11 35 AVENUE,25,11354,40.765162,-73.8288,25-28
25Q670,ROBERT F. KENNEDY COMMUNITY HIGH SCHOOL,99,431,458,441,Q707,Robert F. Kennedy Community High School,Q670,75-40 PARSONS BOULEVARD,25,11366,40.725603,-73.810697,25-28
25Q792,NORTH QUEENS COMMUNITY HIGH SCHOOL,7,379,421,377,Q792,North Queens Community High School,Q792,141-25 77TH ROAD,25,11367,40.720359,-73.819792,25-28
26Q415,BENJAMIN N. CARDOZO HIGH SCHOOL,888,480,545,489,Q415,Benjamin N. Cardozo High School,Q415,57-00 223RD STREET,26,11364,40.752333,-73.75599,25-28
26Q430,FRANCIS LEWIS HIGH SCHOOL,934,468,539,467,Q430,Francis Lewis High School,Q430,58-20 UTOPIA PARKWAY,26,11365,40.740724,-73.79283,25-28
26Q435,MARTIN VAN BUREN HIGH SCHOOL,334,391,397,384,Q435,Martin Van Buren High School,Q435,230-17 HILLSIDE AVENUE,26,11427,40.733066,-73.738756,25-28
26Q495,BAYSIDE HIGH SCHOOL,708,462,523,464,Q405,Bayside High School,Q495,32-24 CORPORAL KENNEDY STREET,26,11361,40.771755,-73.780296,25-28
26Q566,"QUEENS HIGH SCHOOL OF TEACHING, LIBERAL ARTS AND THE SCIENCES",175,425,434,420,Q566,"Queens High School of Teaching, Liberal Arts and t",Q566,74-20 COMMONWEALTH BLVD,26,11426,40.746088,-73.727535,25-28
27Q260,FREDERICK DOUGLASS ACADEMY VI HIGH SCHOOL,87,387,385,373,Q465,Frederick Douglass Academy VI High School,Q260,8-21 BAY 25 STREET,27,11691,40.60201,-73.762795,25-28
27Q262,CHANNEL VIEW SCHOOL FOR RESEARCH,74,432,419,401,Q410,Channel View School for Research,Q262,100-00 BEACH CHANNEL DRIVE,27,11694,40.586066,-73.822624,25-28
27Q302,"QUEENS HIGH SCHOOL FOR INFORMATION, RESEARCH, AND TECHNOLOGY",44,391,401,364,Q465,"Queens High School for Information, Research, and",Q302,8-21 BAY 25 STREET,27,11691,40.60201,-73.762795,25-28
27Q308,ROBERT H. GODDARD HIGH SCHOOL OF COMMUNICATION ARTS AND TECHNOLOGY,93,423,426,416,Q202,Robert H. Goddard High School of Communication Art,Q308,138-30 LAFAYETTE STREET,27,11417,40.67124,-73.845141,25-28
27Q309,ACADEMY OF MEDICAL TECHNOLOGY: A COLLEGE BOARD SCHOOL,36,367,379,348,Q465,Academy of Medical Technology: A College Board Sch,Q309,8-21 BAY 25 STREET,27,11691,40.60201,-73.762795,25-28
27Q323,SCHOLARS' ACADEMY,89,499,537,496,Q180,Scholars' Academy,Q323,320 BEACH 104TH STREET,27,11694,40.584109,-73.825711,25-28
27Q400,AUGUST MARTIN HIGH SCHOOL,101,377,371,360,Q400,August Martin High School,Q400,156-10 BAISLEY BOULEVARD,27,11434,40.675633,-73.783342,25-28
27Q410,BEACH CHANNEL HIGH SCHOOL,78,384,396,354,Q410,Beach Channel High School,Q410,100-00 BEACH CHANNEL DRIVE,27,11694,40.586066,-73.822624,25-28
27Q475,RICHMOND HILL HIGH SCHOOL,404,382,404,368,Q475,Richmond Hill HS Annex(QS),Q475,94-25 117 Street,27,11419,40.693006,-73.829407,25-28
27Q480,JOHN ADAMS HIGH SCHOOL,403,391,409,392,Q480,John Adams High School,Q480,101-01 ROCKAWAY BOULEVARD,27,11417,40.679639,-73.837298,25-28
27Q650,"HIGH SCHOOL FOR CONSTRUCTION TRADES, ENGINEERING AND ARCHITECTURE",194,429,491,425,Q650,"High School for Construction Trades, Engineering a",Q650,94-06 104TH STREET,27,11416,40.689591,-73.840717,25-28
28Q310,QUEENS COLLEGIATE: A COLLEGE BOARD SCHOOL,68,420,445,400,Q470,Queens Collegiate: A College Board School,Q310,167-01 GOTHIC DRIVE,28,11432,40.713218,-73.797237,25-28
28Q338,QUEENS SATELLITE HIGH SCHOOL FOR OPPORTUNITY,6,403,408,367,Q595,Queens Satellite High School for Opportunity,Q338,162-02 HILLSIDE AVENUE,28,11432,40.70848,-73.800065,25-28
28Q350,JAMAICA GATEWAY TO THE SCIENCES,25,430,452,425,Q470,Jamaica Gateway to the Sciences,Q350,167-01 GOTHIC DRIVE,28,11432,40.713218,-73.797237,25-28
28Q440,FOREST HILLS HIGH SCHOOL,762,456,497,454,Q440,Forest Hills High School,Q440,67-01 110 STREET,28,11375,40.729402,-73.845637,25-28
28Q470,JAMAICA HIGH SCHOOL,90,342,368,353,Q470,Jamaica High School,Q470,167-01 GOTHIC DRIVE,28,11432,40.713218,-73.797237,25-28
28Q505,HILLCREST HIGH SCHOOL,462,395,413,386,Q505,Hillcrest High School,Q505,160-05 HIGHLAND AVENUE,28,11432,40.709446,-73.80166,25-28
28Q620,THOMAS A. EDISON CAREER AND TECHNICAL EDUCATION HIGH SCHOOL,422,452,478,442,Q620,Thomas A. Edison Career and Technical Education Hi,Q620,165-65 84 AVENUE,28,11432,40.715389,-73.800369,25-28
28Q680,QUEENS GATEWAY TO HEALTH SCIENCES SECONDARY SCHOOL,99,513,523,502,Q695,Queens Gateway to Health Sciences Secondary School,Q680,160-20 GOETHALS AVENUE,28,11432,40.718831,-73.806499,25-28
28Q687,QUEENS HIGH SCHOOL FOR THE SCIENCES AT YORK COLLEGE,121,612,660,596,Q774,Queens High School for the Sciences at York Colleg,Q687,94-50 159 STREET,28,11433,40.701049,-73.798151,25-28
28Q690,HIGH SCHOOL FOR LAW ENFORCEMENT AND PUBLIC SAFETY,74,406,406,384,Q690,High School for Law Enforcement and Public Safety,Q690,116-25 GUY R BREWER BOULEVARD,28,11434,40.686208,-73.784144,25-28
28Q896,"YOUNG WOMEN'S LEADERSHIP SCHOOL, QUEENS",68,439,445,432,Q680,"Young Women's Leadership School, Queens",Q896,150-91 87 ROAD,28,11432,40.707527,-73.806412,25-28
29Q248,QUEENS PREPARATORY ACADEMY,52,360,380,359,Q420,Queens Preparatory Academy,Q248,143-10 SPRINGFIELD BOULEVARD,29,11413,40.668235,-73.756839,29-32
29Q259,PATHWAYS COLLEGE PREPARATORY SCHOOL: A COLLEGE BOARD SCHOOL,46,401,397,375,Q192,Pathways College Preparatory School: A College Boa,Q259,109-89 204 STREET,29,11412,40.70646,-73.753579,29-32
29Q265,EXCELSIOR PREPARATORY HIGH SCHOOL,49,402,398,402,Q420,Excelsior Preparatory High School,Q265,143-10 SPRINGFIELD BOULEVARD,29,11413,40.668235,-73.756839,29-32
29Q272,GEORGE WASHINGTON CARVER HIGH SCHOOL FOR THE SCIENCES,59,436,427,424,Q420,George Washington Carver High School for the Scien,Q272,143-10 SPRINGFIELD BOULEVARD,29,11413,40.668235,-73.756839,29-32
29Q283,PREPARATORY ACADEMY FOR WRITERS: A COLLEGE BOARD SCHOOL,43,370,367,363,Q420,Preparatory Academy for Writers: A College Board S,Q283,143-10 SPRINGFIELD BOULEVARD,29,11413,40.668235,-73.756839,29-32
29Q492,"MATHEMATICS, SCIENCE RESEARCH AND TECHNOLOGY MAGNET HIGH SCHOOL",78,400,426,394,Q490,"Mathematics, Science Research and Technology Magne",Q492,207- 01 116TH  AVENUE,29,11411,40.697819,-73.745728,29-32
29Q494,"LAW, GOVERNMENT AND COMMUNITY SERVICE HIGH SCHOOL",52,385,377,377,Q490,"Law, Government and Community Service High School",Q494,207- 01 116TH  AVENUE,29,11411,40.697819,-73.745728,29-32
29Q496,"BUSINESS, COMPUTER APPLICATIONS & ENTREPRENEURSHIP HIGH SCHOOL",49,379,414,359,Q490,"Business, Computer Applications & Entrepreneurship",Q496,207- 01 116TH  AVENUE,29,11411,40.697819,-73.745728,29-32
29Q498,HUMANITIES & ARTS MAGNET HIGH SCHOOL,62,393,381,377,Q490,Humanities & Arts Magnet High School,Q498,207- 01 116TH  AVENUE,29,11411,40.697819,-73.745728,29-32
30Q301,ACADEMY FOR CAREERS IN TELEVISION AND FILM,98,410,440,405,Q404,Academy for Careers in Television and Film,Q301,1-50 51ST AVENUE,30,11101,40.742956,-73.959196,29-32
30Q445,WILLIAM CULLEN BRYANT HIGH SCHOOL,395,414,449,412,Q445,William Cullen Bryant High School,Q445,48-10 31 AVENUE,30,11103,40.75823,-73.910514,29-32
30Q450,LONG ISLAND CITY HIGH SCHOOL,392,403,420,395,Q452,Long Island City High School,Q450,14-30 BROADWAY,30,11106,40.765826,-73.9328,29-32
30Q501,FRANK SINATRA SCHOOL OF THE ARTS HIGH SCHOOL,174,504,496,494,Q570,Frank Sinatra School of the Arts High School,Q501,35-12 35TH AVENUE,30,11106,40.756534,-73.925121,29-32
30Q502,INFORMATION TECHNOLOGY HIGH SCHOOL,148,407,434,398,Q725,Information Technology High School,Q502,21-16 44TH ROAD,30,11101,40.748701,-73.94638,29-32
30Q555,NEWCOMERS HIGH SCHOOL,143,323,475,329,Q450,Newcomers High School,Q555,28-01 41 AVENUE,30,11101,40.751356,-73.937445,29-32
30Q575,ACADEMY OF AMERICAN STUDIES,135,487,492,491,Q451,Academy of American Studies,Q575,28-04 41 AVENUE,30,11101,40.751331,-73.937434,29-32
30Q580,BACCALAUREATE SCHOOL FOR GLOBAL EDUCATION,61,524,568,544,Q798,Baccalaureate School for Global Education,Q580,34-12 36 AVENUE,30,11106,40.755366,-73.927169,29-32
31R047,CSI HIGH SCHOOL FOR INTERNATIONAL STUDIES,137,452,451,450,R043,CSI High School for International Studies,R047,100 ESSEX DRIVE,31,10314,40.581315,-74.158589,29-32
31R064,GAYNOR MCCOWN EXPEDITIONARY LEARNING SCHOOL,61,398,412,385,R043,Gaynor McCown Expeditionary Learning School,R064,100 ESSEX DRIVE,31,10314,40.581315,-74.158589,29-32
31R080,THE MICHAEL J. PETRIDES SCHOOL,107,472,488,466,R880,The Michael J. Petrides School,R080,715 OCEAN TERRACE,31,10301,40.608517,-74.102078,29-32
31R440,NEW DORP HIGH SCHOOL,391,424,437,416,R435,New Dorp High School,R440,465 NEW DORP LANE,31,10306,40.569393,-74.107737,29-32
31R445,PORT RICHMOND HIGH SCHOOL,271,424,438,417,R445,Port Richmond High School,R445,85 ST JOSEPHS AVENUE,31,10302,40.634573,-74.141818,29-32
31R450,CURTIS HIGH SCHOOL,375,437,435,429,R450,Curtis High School,R450,105 HAMILTON AVENUE,31,10301,40.644735,-74.081222,29-32
31R455,TOTTENVILLE HIGH SCHOOL,807,462,486,470,R455,Tottenville High School,R455,100 LUTEN AVENUE,31,10312,40.528092,-74.192032,29-32
31R460,SUSAN E. WAGNER HIGH SCHOOL,535,455,474,459,R460,Susan E. Wagner High School,R460,1200 MANOR ROAD,31,10314,40.596803,-74.124227,29-32
31R470,CONCORD HIGH SCHOOL,10,466,455,414,R470,Concord High School,R470,109 RHINE AVENUE,31,10304,40.610868,-74.087379,29-32
31R600,RALPH R. MCKEE CAREER AND TECHNICAL EDUCATION HIGH SCHOOL,94,416,422,397,R600,Ralph R. McKee Career and Technical Education High,R600,290 ST MARKS PLACE,31,10301,40.642793,-74.07873,29-32
31R605,STATEN ISLAND TECHNICAL HIGH SCHOOL,227,635,682,636,R440,Staten Island Technical High School,R605,485 CLAWSON STREET,31,10306,40.567873,-74.115373,29-32
31R607,YOUNG ADULT BOROUGH CENTER AT STATEN IS TECH HS,10,405,375,370,R455,Staten Island Yabc,R607,100 LUTEN AVENUE,31,10312,40.528092,-74.192032,29-32
32K403,ACADEMY FOR ENVIRONMENTAL LEADERSHIP,50,380,366,352,K480,Academy for Environmental Leadership,K403,400 IRVING AVENUE,32,11237,40.69697,-73.910791,29-32
32K545,EBC HIGH SCHOOL FOR PUBLIC SERVICEBUSHWICK,88,384,409,361,K913,EBC High School for Public Service - Bushwick,K545,1155 DEKALB AVENUE,32,11221,40.694507,-73.929107,29-32
32K549,BUSHWICK SCHOOL FOR SOCIAL JUSTICE,75,348,353,334,K480,Bushwick School for Social Justice,K549,400 IRVING AVENUE,32,11237,40.69697,-73.910791,29-32
32K552,ACADEMY OF URBAN PLANNING,67,342,364,354,K480,Academy of Urban Planning,K552,400 IRVING AVENUE,32,11237,40.69697,-73.910791,29-32
32K554,ALL CITY LEADERSHIP SECONDARY SCHOOL,39,428,465,422,K554,All City Leadership Secondary School,K554,321 PALMETTO STREET,32,11237,40.69737,-73.913171,29-32
32K556,BUSHWICK LEADERS HIGH SCHOOL FOR ACADEMIC EXCELLENCE,23,347,358,350,K865,Bushwick Leaders High School for Academic Excellen,K556,797 BUSHWICK AVENUE,32,11221,40.695056,-73.92814,29-32
32K564,BUSHWICK COMMUNITY HIGH SCHOOL,24,359,317,358,K291,Bushwick Community High School,K564,231 PALMETTO STREET,32,11221,40.695362,-73.915142,29-32
75Q811,P.S. Q811,32,429,444,433,Q811,P.S. Q811,Q811,61-25 MARATHON PARKWAY,26,11362,40.756778,-73.729487,25-28
79Q950,GED PLUS s CITYWIDE,8,496,400,426,Q733,Pathways to Graduation,Q950,90-01 SUTPHIN BOULEVARD,28,11435,40.70284,-73.808352,25-28
